- name: Ljubljana, Slovenia
  latitude: 46.0496
  longitude: 14.5068

- name: Solčava, Slovenia
  latitude: 46.41928
  longitude: 14.69215

- name: Zagreb, Croatia
  latitude: 45.8116
  longitude: 15.9782

- name: Napoleon's Bridge, Slovenia
  latitude: 46.228954
  longitude: 13.438967

- name: Trogir, Croatia
  latitude: 43.51636
  longitude: 16.24974

- name: Split, Croatia
  latitude: 43.51146
  longitude: 16.43950

- name: Budapest, Hungary
  latitude: 47.49784
  longitude: 19.04016

- name: Zadar, Croatia
  latitude: 44.116860
  longitude: 15.235325

- name: Plitvice National Park, Croatia
  latitude: 44.88216
  longitude: 15.61833

- name: Soča, Slovenia
  latitude: 46.34242
  longitude: 13.66834

- name: Rastoke, Croatia
  latitude: 45.121192
  longitude: 15.585544
 
- name: Waterfall Kozjak, Slovenia
  latitude: 46.261931
  longitude: 13.592606

- name: Bled Lake, Slovenia
  latitude: 46.36251
  longitude: 14.09012

- name: Savica Waterfall, Slovenia
  latitude: 46.293158
  longitude: 13.796301