- name: Ljubljana, Slovenia
  latitude: 46.0662102
  longitude: 14.4496978

- name: Solčava, Slovenia
  latitude: 46.4179855
  longitude: 14.6826169

- name: Zagreb, Croatia
  latitude: 45.8427451
  longitude: 15.8819641

- name: Napoleon's Bridge, Slovenia
  latitude: 46.2483485
  longitude: 13.5812771

- name: Trogir, Croatia
  latitude: 43.5278188
  longitude: 16.2383224

- name: Split, Croatia
  latitude: 43.5146451
  longitude: 16.4178879

- name: Budapest, Hungary
  latitude: 47.4810954
  longitude: 18.9654986

- name: Zadar, Croatia
  latitude: 44.1360458
  longitude: 15.2077286

- name: Plitvice National Park, Croatia
  latitude: 44.880504
  longitude: 15.6086493

- name: Soča, Slovenia
  latitude: 46.0480722
  longitude: 13.5940019

- name: Rastoke, Croatia
  latitude: 45.1205945
  longitude: 15.5795742
 
- name: Waterfall Kozjak, Slovenia
  latitude: 46.2610118
  longitude: 13.5902141